[
  {
    "id": 1,
    "title": "Мулла Қирғиз мадрасаси",
    "price": "1912 йил",
    "category": 1,
    "marker_image": "/assets/img/img-item-thumb-01.jpg",
    "url": "detail-01.html",
    "address": "Наманган шаҳар, Чорсу МФЙ, Уйчи кўчаси 359-уй",
    "latitude": "41.0069744",
    "longitude": "71.6740159",
    "ribbon": "<i class='fa fa-thumbs-up'></i>",
    "area": 356,
    "bedrooms": 2,
    "bathrooms": 1,
    "rooms": 1,
    "f__air_condition": 1,
    "f__microwave": 1
  },
  {
    "id": 2,
    "title": "Ўн бир Ахмад мақбараси",
    "price": "2021 йилда қайта қурилди",
    "category": 1,
    "marker_image": "/assets/img/img-item-thumb-02.jpg",
    "url": "detail-01.html",
    "address": "Наманган шаҳар Ғирвон МФЙ",
    "latitude": "40.996342",
    "longitude":"71.625888",
    "area": 720,
    "bedrooms": 1,
    "bathrooms": 3,
    "rooms": 5,
    "f__microwave": 1
  },
  {
    "id": 3,
    "title": "Султон Увайс Қароний мақбараси",
    "price": "2019 йилда қайта қурилди",
    "category": 2,
    "marker_image": "/assets/img/img-item-thumb-03.jpg",
    "url": "detail-01.html",
    "address": "Султон Увайс Қароний мақбараси",
    "latitude": "41.350701",
    "longitude": "71.811477",
    "area": 1500,
    "bedrooms": 2,
    "bathrooms": 3,
    "rooms": 8,
    "f__terrace": 1
  },
  {
    "id": 4,
    "title": "Биби Наима она мақбараси",
    "price": "2019 йилда қайта қурилди",
    "category": "",
    "marker_image": "/assets/img/img-item-thumb-04.jpg",
    "url": "detail-01.html",
    "address": "Чортоқ тумани Боғистон МФЙ",
    "latitude": "41.350701",
    "longitude": "71.811477",
    "area": 288,
    "bedrooms": 2,
    "bathrooms": 1,
    "rooms": 1,
    "ribbon": "<i class='far fa-smile' title='Great Offer'></i>"
  },
  {
    "id": 5,
    "title": "Мулла Бозор Охунд мақбараси",
    "price": "XX аср",
    "category": 2,
    "status": 1,
    "marker_image": "/assets/img/img-item-thumb-05.jpg",
    "url": "detail-01.html",
    "address": " Наманган шахар Нурафшон МФЙ, Ҳамкор кўчаси 3 уй",
    "area": 600,
    "bedrooms": 3,
    "bathrooms": 2,
    "rooms": 1,
    "latitude": "41.0069744",
    "longitude": "71.6740159"
  },
  {
    "id": 6,
    "title": "Наманган Хитой банки биноси",
    "price": "1876 йил",
    "additional_info": "",
    "marker_image": "/assets/img/img-item-thumb-06.jpg",
    "url": "detail-01.html",
    "address": "Наманган шаҳар, Шарқ тонги МФЙ  Банк кўчаси 9 уй",
    "ribbon": "<i class='fa fa-thumbs-up'></i>",
    "area": 1850,
    "bedrooms": 5,
    "bathrooms": 3,
    "rooms": 10,
    "latitude": "41.0069744",
    "longitude": "71.6740159"
  },
  {
    "id": 7,
    "title": "Нодим Намангоний мақбараси",
    "price": "2004 йил қайта тикланган",
    "marker_image": "assets/img/img-item-thumb-07.jpg",
    "url": "detail-01.html",
    "address": "Наманган шахар Байналминал МФЙ Нодира кучаси",
    "area": 580,
    "bedrooms": 4,
    "bathrooms": 2,
    "rooms": 8,
    "latitude": "41.000078",
    "longitude": "71.672570"
  },
  {
    "id": 8,
    "title": "Хўжа Амин мақбараси",
    "price": "XVIII аср",
    "category": 1,
    "status": 2,
    "marker_image": "assets/img/img-item-thumb-08.jpg",
    "url": "detail-01.html",
    "address": "Наманган шаҳар, Чорсу МФЙ, Кўзагарлик кўчаси 19 уй",
    "latitude": "41.002771",
    "longitude": "71.694080",
    "badge": "Rent",
    "area": 368,
    "bedrooms": 4,
    "bathrooms": 2,
    "rooms": 2,
    "additional_info": [
      {
        "title": "Area",
        "value": "87m<sup>2</sup>"
      },
      {
        "title": "Rooms",
        "value": "3"
      },
      {
        "title": "Pets",
        "value": "Allowed"
      }
    ]
  },
  {
    "id": 9,
    "title": "Махдуми Аъзам мақбараси",
    "price": "1991 йил",
    "marker_image": "assets/img/img-item-thumb-09.jpg",
    "url": "detail-02.html",
    "address": "Косонсой тумани,М.Аъзам МФЙ, М. Аъзам кўчаси, 9-уй",
    "ribbon_corner": "New Listing",
    "area": 310,
    "bedrooms": 4,
    "bathrooms": 2,
    "rooms": 3,
    "latitude": "41.252188",
    "longitude": "71.539976"
  },
  {
    "id": 10,
    "title": "Биби Мушкулкушод мақбараси",
    "status": 2,
    "price": "Аниқ эмас",
    "marker_image": "assets/img/img-item-thumb-10.jpg",
    "url": "detail-03.html",
    "address": "Наманган тумани, Бектемир  МФЙ, Бектемир кўчаси,94-уй",
    "latitude": "40.922597",
    "longitude": "71.654658",
    "area": 190,
    "bedrooms": 4,
    "bathrooms": 2,
    "rooms": 3,
    "badge": "Rent"
  },
  {
    "id": 11,
    "title": "Шайхул Ислом масжиди",
    "price": "XVIII аср",
    "marker_image": "assets/img/img-item-thumb-11.jpg",
    "url": "detail-01.html",
    "address": "Косонсой тумани,  “Гулобод” МФЙ,  Қадрдон кўчаси",
    "latitude": "41.246943",
    "longitude": "71.546321"
  },
  {
    "id": 12,
    "title": "Бўзчи мозор (От бозор)",
    "price": "Аниқ эмас",
    "status": 2,
    "marker_image": "assets/img/img-item-thumb-12.jpg",
    "url": "detail-02.html",
    "address": "Наманган шаҳри, Гўзал МФЙ, Ж.Мангуберди кўчаси",
    "latitude": "41.022866",
    "longitude": "71.656553",
    "badge": "Rent",
    "area": 980,
    "bedrooms": 4,
    "bathrooms": 2,
    "rooms": 10,
    "ribbon": "<i class='fa fa-thumbs-up'></i>"
  },
  {
    "id": 13,
    "title": "Apartments Center Complex",
    "price": 89000,
    "marker_image": "assets/img/img-item-thumb-13.jpg",
    "url": "detail-02.html",
    "address": "674 Wyona Street, Otranto",
    "area": 301,
    "bedrooms": 4,
    "bathrooms": 2,
    "rooms": 3,
    "latitude": "40.65241954519077",
    "longitude": "-73.27795745324536"
  },
  {
    "id": 14,
    "title": "Shared Office",
    "price": 180,
    "marker_image": "assets/img/img-item-thumb-14.jpg",
    "url": "detail-01.html",
    "address": "827 Jodie Court, Osmond",
    "ribbon": 1,
    "area": 870,
    "bedrooms": 4,
    "bathrooms": 2,
    "rooms": 12,
    "latitude": "40.67818255029871",
    "longitude": "-73.44946780871584"
  },
  {
    "id": 15,
    "title": "Newly Redesigned Studio",
    "price": 45900,
    "marker_image": "assets/img/img-item-thumb-15.jpg",
    "url": "detail-01.html",
    "address": "398 McKibbin Street, Oneida",
    "ribbon": "<i class='fa fa-thumbs-up'></i>",
    "latitude": "40.68104655877173",
    "longitude": "-73.45513263415529"
  },
  {
    "id": 16,
    "title": "Residental House on Quite Place",
    "price": 185900,
    "ribbon_corner": "50% Off",
    "marker_image": "assets/img/img-item-thumb-16.jpg",
    "url": "detail-01.html",
    "address": "605 Dennett Place, Tooleville",
    "area": 405,
    "bedrooms": 4,
    "bathrooms": 2,
    "rooms": 10,
    "latitude": "40.70739786733858",
    "longitude": "-73.53767378821803"
  },
  {
    "id": 17,
    "title": "Spacey Apartment In Town Center",
    "price": 153000,
    "marker_image": "assets/img/img-item-thumb-17.jpg",
    "url": "detail-02.html",
    "address": "569 Harrison Place, Lafferty",
    "area": 210,
    "bedrooms": 3,
    "bathrooms": 2,
    "rooms": 3,
    "latitude": "40.70707735514919",
    "longitude": "-73.54302325915529"
  },
  {
    "id": 18,
    "title": "Centuria Luxury Villa",
    "price": 48000,
    "marker_image": "assets/img/img-item-thumb-18.jpg",
    "url": "detail-03.html",
    "address": "745 Louis Place, Staples, California",
    "area": 678,
    "bedrooms": 3,
    "bathrooms": 2,
    "rooms": 3,
    "latitude": "40.70499526570847",
    "longitude": "-73.53667178820803"
  },
  {
    "id": 19,
    "title": "House in the Forest",
    "price": 249000,
    "marker_image": "assets/img/img-item-thumb-19.jpg",
    "url": "detail-01.html",
    "address": "393 Hooper Street, Rote",
    "area": 150,
    "bedrooms": 1,
    "bathrooms": 1,
    "rooms": 3,
    "latitude": "40.71670617207652",
    "longitude": "-73.51229587268068"
  },
  {
    "id": 20,
    "title": "Forest Cabin",
    "price": 119000,
    "marker_image": "assets/img/img-item-thumb-20.jpg",
    "url": "detail-03.html",
    "address": "714 Fairview Place, Allentown",
    "area": 210,
    "bedrooms": 3,
    "bathrooms": 2,
    "rooms": 3,
    "latitude": "40.77288984931648",
    "longitude": "-73.39745441149904"
  },
  {
    "id": 21,
    "title": "Great Stone Residence",
    "price": 800000,
    "marker_image": "assets/img/img-item-thumb-21.jpg",
    "url": "detail-03.html",
    "address": "Philadelphia, PA 19108",
    "area": 800,
    "bedrooms": 3,
    "bathrooms": 2,
    "rooms": 8,
    "latitude": "40.706817097528884",
    "longitude": "-73.58370700549318"
  },
  {
    "id": 22,
    "title": "Grocery Store",
    "price": 183000,
    "marker_image": "assets/img/img-item-thumb-22.jpg",
    "url": "detail-03.html",
    "address": "Hanover, MD 21076",
    "area": 210,
    "bedrooms": 3,
    "bathrooms": 2,
    "rooms": 3,
    "latitude": "40.72321134118185",
    "longitude": "-73.64447513293459"
  },
  {
    "id": 23,
    "title": "Wood House",
    "price": 202000,
    "marker_image": "assets/img/img-item-thumb-23.jpg",
    "url": "detail-01.html",
    "address": "Fayetteville, NC 28306",
    "area": 210,
    "bedrooms": 3,
    "bathrooms": 2,
    "rooms": 3,
    "latitude": "40.74181261562849",
    "longitude": "-73.562420994751"
  },
  {
    "id": 24,
    "title": "Modern Apartment",
    "price": 79800,
    "marker_image": "assets/img/img-item-thumb-24.jpg",
    "url": "detail-02.html",
    "address": "Aitkin, MN 56431",
    "area": 210,
    "bedrooms": 3,
    "bathrooms": 2,
    "rooms": 3,
    "latitude": "40.75234669471232",
    "longitude": "-73.50594440173342"
  },
  {
    "id": 25,
    "title": "New Town Complex",
    "price": 356000,
    "marker_image": "assets/img/img-item-thumb-25.jpg",
    "url": "detail-01.html",
    "address": "Los Alamos, NM 87544",
    "area": 740,
    "bedrooms": 3,
    "bathrooms": 2,
    "rooms": 12,
    "latitude": "40.6857328526672",
    "longitude": "-73.51675906848146"
  },


  {
    "id": 26,
    "title": "Industrial Building",
    "price": 356000,
    "url": "detail-01.html",
    "address": "Los Alamos, NM 87544",
    "area": 740,
    "bedrooms": 3,
    "bathrooms": 2,
    "rooms": 12,
    "latitude": "40.79667556663265",
    "longitude": "-73.47985187243654"
  }
]
