[
  {
    "id": 1,
    "title": "Мулла Қирғиз мадрасаси",
    "price": "1912 йил",
    "category": 1,
    "marker_image": "/assets/img/img-item-thumb-01.jpg",
    "url": "detail-01.html",
    "address": "Наманган шаҳар, Чорсу МФЙ, Уйчи кўчаси 359-уй",
    "latitude": "41.0069744",
    "longitude": "71.6740159",
    "ribbon": "<i class='fa fa-thumbs-up'></i>",
    "area": 356,
    "bedrooms": 2,
    "bathrooms": 1,
    "rooms": 1,
    "f__air_condition": 1,
    "f__microwave": 1
  },
  {
    "id": 2,
    "title": "Ўн бир Ахмад мақбараси",
    "price": "1991 йилда",
    "category": 1,
    "marker_image": "/front/assets/img/unbir_ahmad.png",
    "url": "detail-01.html",
    "address": "Наманган шаҳар,  Давлатобод тумани Юқори Ғирвон М.Ф.Й, Ҳамид Олимжон  кўчаси, 7-уй",
    "latitude": "40.9964631",
    "longitude":"71.6251553",
    "area": 720,
    "bedrooms": 1,
    "bathrooms": 3,
    "rooms": 5,
    "f__microwave": 1
  },
  {
    "id": 3,
    "title": "Султон Увайс Қароний мақбараси",
    "price": "2019 йилда қайта қурилди",
    "category": 2,
    "marker_image": "/assets/img/img-item-thumb-03.jpg",
    "url": "detail-01.html",
    "address": "Султон Увайс Қароний мақбараси",
    "latitude": "41.350701",
    "longitude": "71.811477",
    "area": 1500,
    "bedrooms": 2,
    "bathrooms": 3,
    "rooms": 8,
    "f__terrace": 1
  },
  {
    "id": 4,
    "title": "Биби Наима она мақбараси",
    "price": "2019 йилда қайта қурилди",
    "category": "",
    "marker_image": "/assets/img/img-item-thumb-04.jpg",
    "url": "detail-01.html",
    "address": "Чортоқ тумани Боғистон МФЙ",
    "latitude": "41.350701",
    "longitude": "71.811477",
    "area": 288,
    "bedrooms": 2,
    "bathrooms": 1,
    "rooms": 1,
    "ribbon": "<i class='far fa-smile' title='Great Offer'></i>"
  },
  {
    "id": 5,
    "title": "Мулла Бозор Охунд мақбараси",
    "price": "XX аср",
    "category": 2,
    "status": 1,
    "marker_image": "/assets/img/img-item-thumb-05.jpg",
    "url": "detail-01.html",
    "address": " Наманган шахар Нурафшон МФЙ, Ҳамкор кўчаси 3 уй",
    "area": 600,
    "bedrooms": 3,
    "bathrooms": 2,
    "rooms": 1,
    "latitude": "41.0069744",
    "longitude": "71.6740159"
  },
  {
    "id": 6,
    "title": "Наманган Хитой банки биноси",
    "price": "1876 йил",
    "additional_info": "",
    "marker_image": "/assets/img/img-item-thumb-06.jpg",
    "url": "detail-01.html",
    "address": "Наманган шаҳар, Шарқ тонги МФЙ  Банк кўчаси 9 уй",
    "ribbon": "<i class='fa fa-thumbs-up'></i>",
    "area": 1850,
    "bedrooms": 5,
    "bathrooms": 3,
    "rooms": 10,
    "latitude": "41.0069744",
    "longitude": "71.6740159"
  },
  {
    "id": 7,
    "title": "Нодим Намангоний мақбараси",
    "price": "2004 йил қайта тикланган",
    "marker_image": "assets/img/img-item-thumb-07.jpg",
    "url": "detail-01.html",
    "address": "Наманган шахар Байналминал МФЙ Нодира кучаси",
    "area": 580,
    "bedrooms": 4,
    "bathrooms": 2,
    "rooms": 8,
    "latitude": "41.000078",
    "longitude": "71.672570"
  },
  {
    "id": 8,
    "title": "Хўжа Амин мақбараси",
    "price": "XVIII аср",
    "category": 1,
    "status": 2,
    "marker_image": "assets/img/img-item-thumb-08.jpg",
    "url": "detail-01.html",
    "address": "Наманган шаҳар, Чорсу МФЙ, Кўзагарлик кўчаси 19 уй",
    "latitude": "41.002771",
    "longitude": "71.694080",
    "badge": "Rent",
    "area": 368,
    "bedrooms": 4,
    "bathrooms": 2,
    "rooms": 2,
    "additional_info": [
      {
        "title": "Area",
        "value": "87m<sup>2</sup>"
      },
      {
        "title": "Rooms",
        "value": "3"
      },
      {
        "title": "Pets",
        "value": "Allowed"
      }
    ]
  },
  {
    "id": 9,
    "title": "Махдуми Аъзам мақбараси",
    "price": "1991 йил",
    "marker_image": "assets/img/img-item-thumb-09.jpg",
    "url": "detail-02.html",
    "address": "Косонсой тумани,М.Аъзам МФЙ, М. Аъзам кўчаси, 9-уй",
    "ribbon_corner": "New Listing",
    "area": 310,
    "bedrooms": 4,
    "bathrooms": 2,
    "rooms": 3,
    "latitude": "41.252188",
    "longitude": "71.539976"
  },
  {
    "id": 10,
    "title": "Биби Мушкулкушод мақбараси",
    "status": 2,
    "price": "Аниқ эмас",
    "marker_image": "/front/assets/img/bibi_mushkulkushod.png",
    "url": "detail-03.html",
    "address": "Наманган тумани, Бектемир  МФЙ, Бектемир кўчаси,94-уй",
    "latitude": "40.922597",
    "longitude": "71.654658",
    "area": 190,
    "bedrooms": 4,
    "bathrooms": 2,
    "rooms": 3,
    "badge": "Rent"
  },
  {
    "id": 11,
    "title": "Шайхул Ислом масжиди",
    "price": "XVIII аср",
    "marker_image": "assets/img/img-item-thumb-11.jpg",
    "url": "detail-01.html",
    "address": "Косонсой тумани,  “Гулобод” МФЙ,  Қадрдон кўчаси",
    "latitude": "41.246943",
    "longitude": "71.546321"
  },
  {
    "id": 12,
    "title": "Бўзчи мозор (От бозор)",
    "price": "Аниқ эмас",
    "status": 2,
    "marker_image": "/assets/img/img-item-thumb-12.jpg",
    "url": "detail-02.html",
    "address": "Наманган шаҳри, Гўзал МФЙ, Ж.Мангуберди кўчаси",
    "latitude": "41.022866",
    "longitude": "71.656553",
    "badge": "Rent",
    "area": 980,
    "bedrooms": 4,
    "bathrooms": 2,
    "rooms": 10,
    "ribbon": "<i class='fa fa-thumbs-up'></i>"
  },
  {
    "id": 13,
    "title": "Лаббай тоға",
    "price": "XIV аср",
    "marker_image": "assets/img/img-item-thumb-13.jpg",
    "url": "detail-02.html",
    "address": "Наманган шаҳар Ғунча МФЙ Ойдин кўчаси",
    "area": 301,
    "bedrooms": 4,
    "bathrooms": 2,
    "rooms": 3,
    "latitude": "41.016452",
    "longitude": "71.681355"
  },
  {
    "id": 14,
    "title": "Қалампир тепа",
    "price": "Аниқ эмас",
    "marker_image": "assets/img/img-item-thumb-14.jpg",
    "url": "detail-01.html",
    "address": "Наманган шаҳар Қадамжо МФЙ Жийдакапа кўчаси",
    "ribbon": 1,
    "area": 870,
    "bedrooms": 4,
    "bathrooms": 2,
    "rooms": 12,
    "latitude": "40.67818255029871",
    "longitude": "-73.44946780871584"
  },
  {
    "id": 15,
    "title": "Тепақўрғон масжиди (Умарбой хожи жомеъ масжиди)",
    "price": "1890 йил",
    "marker_image": "assets/img/img-item-thumb-15.jpg",
    "url": "detail-01.html",
    "address": "Наманган тумани, Тепақўрғон МФЙ, Бозорбоши кўчаси",
    "ribbon": "<i class='fa fa-thumbs-up'></i>",
    "latitude": "40.68104655877173",
    "longitude": "-73.45513263415529"
  },
  {
    "id": 16,
    "title": "Қоратепа",
    "price": "Антик давр",
    "ribbon_corner": "50% Off",
    "marker_image": "assets/img/img-item-thumb-16.jpg",
    "url": "detail-01.html",
    "address": "Наманган тумани, Тепақўрғон МФЙ, Бозорбоши кўчаси",
    "area": 405,
    "bedrooms": 4,
    "bathrooms": 2,
    "rooms": 10,
    "latitude": "40.70739786733858",
    "longitude": "-73.53767378821803"
  },
  {
    "id": 17,
    "title": "Тепақўрғон масжиди (Умарбой хожи жомеъ масжиди)",
    "price": "1890 йил",
    "marker_image": "assets/img/img-item-thumb-17.jpg",
    "url": "detail-02.html",
    "address": "Наманган тумани, Тепақўрғон МФЙ, Бозорбоши кўчаси",
    "area": 210,
    "bedrooms": 3,
    "bathrooms": 2,
    "rooms": 3,
    "latitude": "40.901671",
    "longitude": "71.564026"
  },
  {
    "id": 18,
    "title": "Махзум Эшон масжиди",
    "price": "1870 йил",
    "marker_image": "assets/img/img-item-thumb-18.jpg",
    "url": "detail-03.html",
    "address": "Наманган шаҳар, \"Марғилон\" МФЙ, Марғилон кўчаси",
    "area": 678,
    "bedrooms": 3,
    "bathrooms": 2,
    "rooms": 3,
    "latitude": "40.996178",
    "longitude": "71.640145"
  },
  {
    "id": 19,
    "title": "1-сонли ўрта мактаб биноси",
    "price": "XIX аср",
    "marker_image": "assets/img/img-item-thumb-19.jpg",
    "url": "detail-01.html",
    "address": "Наманган шахар Обихаёт МФЙ Сиргали кучаси 1-уй",
    "area": 150,
    "bedrooms": 1,
    "bathrooms": 1,
    "rooms": 3,
    "latitude": "41.002798",
    "longitude": "71.667470"
  },
  {
    "id": 20,
    "title": "Алишер Навоий номидаги театр",
    "price": "1950 йил",
    "marker_image": "assets/img/img-item-thumb-20.jpg",
    "url": "detail-03.html",
    "address": "Наманган шаҳар, Оби ҳаёт МФЙ",
    "area": 210,
    "bedrooms": 3,
    "bathrooms": 2,
    "rooms": 3,
    "latitude": "41.000959",
    "longitude": "71.676450"
  },
  {
    "id": 21,
    "title": "Бўстон бува мақбараси",
    "price": "Аниқ эмас",
    "marker_image": "/front/assets/img/buston_buva.png",
    "url": "detail-03.html",
    "address": "Наманган шаҳар,  Давлатобод тумани Юқори Ғирвон М.Ф.Й, Ҳамид Олимжон  кўчаси, 7-уй",
    "area": 800,
    "bedrooms": 3,
    "bathrooms": 2,
    "rooms": 8,
    "latitude": "40.8032",
    "longitude": "71.4848"
  },
  {
    "id": 22,
    "title": "Вилоят маданият саройи",
    "price": "1965 йил",
    "marker_image": "assets/img/img-item-thumb-22.jpg",
    "url": "detail-03.html",
    "address": "Наманган шаҳар, Исфархон МФЙ, Навоий кўчаси 15 уй",
    "area": 210,
    "bedrooms": 3,
    "bathrooms": 2,
    "rooms": 3,
    "latitude": "40.998499",
    "longitude": "71.675220"
  },
  {
    "id": 23,
    "title": "Ғишт кўприк",
    "price": "XIX аср",
    "marker_image": "assets/img/img-item-thumb-23.jpg",
    "url": "detail-01.html",
    "address": "Наманган шаҳар, Уйчи кўчаси",
    "area": 210,
    "bedrooms": 3,
    "bathrooms": 2,
    "rooms": 3,
    "latitude": "41.004318",
    "longitude": "71.682120"
  },
  {
    "id": 24,
    "title": "Мустақиллик майдонидаги стелла",
    "price": "2006 йил",
    "marker_image": "assets/img/img-item-thumb-24.jpg",
    "url": "detail-02.html",
    "address": "Наманган шаҳар, “Шарқ тонги” МФЙ, “Истиқлол” кўчаси Мустақиллик майдони",
    "area": 210,
    "bedrooms": 3,
    "bathrooms": 2,
    "rooms": 3,
    "latitude": "40.999711",
    "longitude": "71.672603"
  },
  {
    "id": 25,
    "title": "Исфархон ота қабрлари",
    "price": "Аниқ эмас",
    "marker_image": "assets/img/img-item-thumb-25.jpg",
    "url": "detail-01.html",
    "address": "Наманган шаҳар, Навоий кўчаси",
    "area": 740,
    "bedrooms": 3,
    "bathrooms": 2,
    "rooms": 12,
    "latitude": "40.993437",
    "longitude": "71.670667"
  },


  {
    "id": 26,
    "title": "Хотира майдони",
    "price": "2010 йил",
    "url": "detail-01.html",
    "address": "Наманган шаҳар,“Оби ҳаёт” МФЙ, А.Темур кўчаси",
    "area": 740,
    "bedrooms": 3,
    "bathrooms": 2,
    "rooms": 12,
    "latitude": "41.001494",
    "longitude": "71.662965"
  },{
    "id": 26,
    "title": "Бобораҳим Машраб ҳайкали",
    "price": "2006 йил",
    "url": "detail-01.html",
    "address": "Наманган шаҳар,“Шарқ тонги” МФЙ, Вилоят мусиқали драма театри хиёбонида",
    "area": 740,
    "bedrooms": 3,
    "bathrooms": 2,
    "rooms": 12,
    "latitude": "41.00079241829069",
    "longitude": "71.67513307953462"
  },{
    "id": 26,
    "title": "Ипакчи қиз ҳайкали",
    "price": "1980 йил",
    "url": "detail-01.html",
    "address": "Наманган шаҳар, “Қадамжо” МФЙ, Бобуршоҳ кўчаси",
    "area": 740,
    "bedrooms": 3,
    "bathrooms": 2,
    "rooms": 12,
    "latitude": "40.9928309133365",
    "longitude": "71.67991840914158"
  },{
    "id": 26,
    "title": "Косонсой тумани , Обод МФЙ",
    "price": "Антик давр",
    "url": "detail-01.html",
    "address": "Муғтепа Косон шаҳристони",
    "area": 740,
    "bedrooms": 3,
    "bathrooms": 2,
    "rooms": 12,
    "latitude": "41.252534831710875",
    "longitude": "71.53923382011196"
    },
    {
        "id": 26,
        "title": "Ғўртепа кўҳна қабристони",
        "price": "Аниқ эмас",
        "url": "detail-01.html",
        "address": "Мингбулоқ туман Гуртепа қишлоғи Бозорбоши МФЙ Ўзбекистон кўчаси",
        "area": 740,
        "bedrooms": 3,
        "bathrooms": 2,
        "rooms": 12,
        "latitude": "40.8233552",
        "longitude": "71.2318949"
    },
    {
        "id": 27,
        "title": "“Мазжуб Намангоний” зиёратгоҳи",
        "price": "2001 йилда",
        "url": "detail-01.html",
        "address": "Мажзуб Намангоний мақбараси Мавлоно (Лаббай тоға) қабристонининг шарқ томонидан жойлашган бўлиб, бунёд этилган йили маълум эмас",
        "category": 1,
        "marker_image": "/assets/img/img-item-thumb-01.jpg",
        "area": 740,
        "bedrooms": 3,
        "bathrooms": 2,
        "rooms": 12,
        "latitude": "41.00286923",
        "longitude": "71.47157032"
    },
    {
        "id": 28,
        "title": "Девона бува мақбараси",
        "price": "1725-1750 йиллар",
        "url": "detail-01.html",
        "address": "Ушбу мақбара 1725-1750 йиллар мобайнида бунёд этилган",
        "category": 1,
        "marker_image": "/front/assets/img/devona.png",
        "area": 740,
        "bedrooms": 3,
        "bathrooms": 2,
        "rooms": 12,
        "latitude": "41.0069744",
        "longitude": "71.6740159"
    },{
        "id": 29,
        "title": "“Булоқ мозор” зиёратгоҳи",
        "price": "1725-1750 йиллар",
        "url": "detail-01.html",
        "address": "Норин тумани,Уч тепа  МФЙ, А.Темур кўчаси, 67-уй",
        "category": 1,
        "marker_image": "/front/assets/img/buloqmozor.png",
        "area": 740,
        "bedrooms": 3,
        "bathrooms": 2,
        "rooms": 12,
        "latitude": "40.55498223",
        "longitude": "71.52498175"
    },{
        "id": 29,
        "title": "“Зайнул Обиддин Имом ота” зиёратгоҳи",
        "price": "1725-1750 йиллар",
        "url": "detail-01.html",
        "address": "Поп тумани Парда Турсун қишлоғи,\nИмом ота МФЙ Оромгоҳ кўчаси\n",
        "category": 1,
        "marker_image": "/front/assets/img/buloqmozor.png",
        "area": 740,
        "bedrooms": 3,
        "bathrooms": 2,
        "rooms": 12,
        "latitude": "41.04158730",
        "longitude": "70.53087100"
    },{
        "id": 30,
        "title": "“Чур-Чур Момо” (Она кўз ёши)\nзиёратгоҳи\n",
        "price": "1725-1750 йиллар",
        "url": "detail-01.html",
        "address": "Поп тумани\n Чодак қишлоғи,\nЧодак МФЙ\n",
        "category": 1,
        "marker_image": "/front/assets/img/churchurmomo.png",
        "area": 740,
        "bedrooms": 3,
        "bathrooms": 2,
        "rooms": 12,
        "latitude": "40.58444300",
        "longitude": "70.45084100"
    },{
        "id": 31,
        "title": "“Ҳазрати Боб Фарғоний ” зиёратгоҳи",
        "price": "1725-1750 йиллар",
        "url": "detail-01.html",
        "address": "Поп тумани Чинор МФЙ. Хазрати боб кўчаси",
        "category": 1,
        "marker_image": "/front/assets/img/xazratibob_fargoniy.png",
        "area": 740,
        "bedrooms": 3,
        "bathrooms": 2,
        "rooms": 12,
        "latitude": "40.53452502",
        "longitude": "71.05515576"
    },{
        "id": 32,
        "title": "“Лангар Азиз бува”  зиёратгоҳи",
        "price": "1725-1750 йиллар",
        "url": "detail-01.html",
        "address": "Поп тумани\n Санг қишлоғи, Пиллакаш МФЙ\n",
        "category": 1,
        "marker_image": "/front/assets/img/langaraziz.png",
        "area": 740,
        "bedrooms": 3,
        "bathrooms": 2,
        "rooms": 12,
        "latitude": "40.51203344",
        "longitude": "71.10599683"
    },{
        "id": 33,
        "title": "“Чилла мозор” зиёратгоҳи",
        "price": "1725-1750 йиллар",
        "url": "detail-01.html",
        "address": "Поп тумани Уйғур МФЙ,\nКелачи кўчаси\n",
        "category": 1,
        "marker_image": "/front/assets/img/chillamozor.png",
        "area": 740,
        "bedrooms": 3,
        "bathrooms": 2,
        "rooms": 12,
        "latitude": "40.50509710",
        "longitude": "71.6482400"
    },{
        "id": 34,
        "title": "“Юсуф Бой Хамадоний” зиёратгоҳи",
        "price": "1725-1750 йиллар",
        "url": "detail-01.html",
        "address": "Поп тумани Чодак МФЙ",
        "category": 1,
        "marker_image": "/front/assets/img/yusufboy.png",
        "area": 740,
        "bedrooms": 3,
        "bathrooms": 2,
        "rooms": 12,
        "latitude": "40.56374307",
        "longitude": "70.46002880"
    },{
        "id": 35,
        "title": "“Aрашан булоқ ”\n(Қайнар булоқ) зиёратгоҳи\n",
        "price": "1725-1750 йиллар",
        "url": "detail-01.html",
        "address": "Поп тумани,\nЮқори Чодак МФЙ\n",
        "category": 1,
        "marker_image": "/front/assets/img/arashanbuloq.png",
        "area": 740,
        "bedrooms": 3,
        "bathrooms": 2,
        "rooms": 12,
        "latitude": "41.16400000",
        "longitude": "70.31100000"
    },{
        "id": 36,
        "title": "“Mавлоно Лутфиллоҳ” мақбараси",
        "price": "1725-1750 йиллар",
        "url": "detail-01.html",
        "address": "Чуст шаҳар Мавлоно Лутфуллоҳ номли маданият ва истироҳат боғи",
        "category": 1,
        "marker_image": "/front/assets/img/mavlonolutfilloh.png",
        "area": 740,
        "bedrooms": 3,
        "bathrooms": 2,
        "rooms": 12,
        "latitude": "41.00013414",
        "longitude": "71.14030237"
    },{
        "id": 37,
        "title": "“Баховуддин Балагардон” зиёратгоҳи",
        "price": "1725-1750 йиллар",
        "url": "detail-01.html",
        "address": "Чуст тумани  Камарсада МФЙ, \n  Ипак йўли кўчаси, 2- уй\n",
        "category": 1,
        "marker_image": "/front/assets/img/bahoviddin.png",
        "area": 740,
        "bedrooms": 3,
        "bathrooms": 2,
        "rooms": 12,
        "latitude": "40.59413694",
        "longitude": "71.13471471"
    },{
        "id": 38,
        "title": "“Axтом саҳоба” зиёратгоҳи",
        "price": "1725-1750 йиллар",
        "url": "detail-01.html",
        "address": "Янгиқўрғон тумани,\n Оқтом МФЙ\n",
        "category": 1,
        "marker_image": "/front/assets/img/axtom_saxoba.png",
        "area": 740,
        "bedrooms": 3,
        "bathrooms": 2,
        "rooms": 12,
        "latitude": "41.29350588",
        "longitude": "71.40209134"
    }
,{
        "id": 39,
        "title": "“Бобо Яхсўз” зиёратгоҳи",
        "price": "1725-1750 йиллар",
        "url": "detail-01.html",
        "address": "Янгиқўрғон тумани, \nНанай МФЙ\n",
        "category": 1,
        "marker_image": "/front/assets/img/boboyaxsuz.png",
        "area": 740,
        "bedrooms": 3,
        "bathrooms": 2,
        "rooms": 12,
        "latitude": "41.31189721",
        "longitude": "71.42052915"
    },{
        "id": 40,
        "title": "“Чинор бобо” зиёратгоҳи",
        "price": "",
        "url": "detail-01.html",
        "address": "Косонсой туман маданият ва истироҳат боғи худудида",
        "category": 1,
        "marker_image": "/front/assets/img/chinorbobo.png",
        "area": 740,
        "bedrooms": 3,
        "bathrooms": 2,
        "rooms": 12,
        "latitude": "41.15143332",
        "longitude": "71.32501159"
    },{
        "id": 41,
        "title": "Қиз мозор мақбараси",
        "price": "Аниқ эмас",
        "url": "detail-01.html",
        "address": "Тўрақўрғон тумани\nШовон МФЙ  Парасмон кўчаси\n",
        "category": 1,
        "marker_image": "/front/assets/img/qizmozor.png",
        "area": 740,
        "bedrooms": 3,
        "bathrooms": 2,
        "rooms": 12,
        "latitude": "40.54252808",
        "longitude": "71.31251314"
    },{
        "id": 42,
        "title": "“Фаласбон бува” мақбараси",
        "price": "Аниқ эмас",
        "url": "detail-01.html",
        "address": "Тўрақўрғон туман Сайрам қишлоғи, Эски Наманган кўчаси",
        "category": 1,
        "marker_image": "/front/assets/img/falsonbuva.png",
        "area": 740,
        "bedrooms": 3,
        "bathrooms": 2,
        "rooms": 12,
        "latitude": "41.00163473",
        "longitude": "71.31522157"
    },{
        "id": 42,
        "title": "“Тирик мозор” зиёратгоҳи",
        "price": "Аниқ эмас",
        "url": "detail-01.html",
        "address": "Учқўрғон тумани \nЧек МФЙ\n",
        "category": 1,
        "marker_image": "/front/assets/img/tirikmozor.png",
        "area": 740,
        "bedrooms": 3,
        "bathrooms": 2,
        "rooms": 12,
        "latitude": "41.05307439",
        "longitude": "72.03234205"
    },{
        "id": 42,
        "title": "Балиқли кўл зиёратгоҳи",
        "price": "Аниқ эмас",
        "url": "detail-01.html",
        "address": "Чортоқ тумани Боғистон МФЙ \n Балиқли кўл кўчаси\n",
        "category": 1,
        "marker_image": "/front/assets/img/baliq_kul.png",
        "area": 740,
        "bedrooms": 3,
        "bathrooms": 2,
        "rooms": 12,
        "latitude": "41.19254181",
        "longitude": "71.50136071"
    }
]
